{
"type": "FeatureCollection",
"crs": { "type": "name", "properties": { "name": "urn:ogc:def:crs:EPSG::4019" } },
                                                                                
"features": [
{ "type": "Feature", "properties": { "GEODB_OID": 0.0, "OBJECTID": 2546.0, "NAME": "澳门特别行政区", "PINYIN": "Aomen Tebie Xingzheng Qu", "CLASS": "AB", "GNID": "820000", "XZNAME": "澳门", "XZJB": null, "备注_地驻": null, "POINT_X": 113.53775083, "POINT_Y": 22.189820105, "POINT_Z": 0.0, "POINT_M": 1.0, "cp": [113.53775083,22.189820105] }, "geometry": { "type": "Point", "coordinates": [ 113.53775083000005, 22.189820105000081, 0.0 ] } },
{ "type": "Feature", "properties": { "GEODB_OID": 0.0, "OBJECTID": 2768.0, "NAME": "广东省", "PINYIN": "Guangdong Sheng", "CLASS": "AB", "GNID": "440000", "XZNAME": "广州市", "XZJB": null, "备注_地驻": null, "POINT_X": 113.26149524500001, "POINT_Y": 23.134239805, "POINT_Z": 0.0, "POINT_M": 1.0, "cp": [113.261495245,23.134239805] }, "geometry": { "type": "Point", "coordinates": [ 113.26149524500011, 23.134239805000107, 0.0 ] } },
{ "type": "Feature", "properties": { "GEODB_OID": 0.0, "OBJECTID": 2772.0, "NAME": "广西壮族自治区", "PINYIN": "Guangxi Zhuangzu Zizhiqu", "CLASS": "AB", "GNID": "450000", "XZNAME": "南宁市", "XZJB": null, "备注_地驻": null, "POINT_X": 108.32509351, "POINT_Y": 22.819730005, "POINT_Z": 0.0, "POINT_M": 1.0, "cp": [108.32509351,22.819730005] }, "geometry": { "type": "Point", "coordinates": [ 108.3250935100001, 22.81973000500011, 0.0 ] } },
{ "type": "Feature", "properties": { "GEODB_OID": 0.0, "OBJECTID": 2786.0, "NAME": "海南省", "PINYIN": "Hainan Sheng", "CLASS": "AB", "GNID": "460000", "XZNAME": "海口市", "XZJB": null, "备注_地驻": null, "POINT_X": 110.34481746500001, "POINT_Y": 20.02195285, "POINT_Z": 0.0, "POINT_M": 1.0, "cp": [110.344817465,20.02195285] }, "geometry": { "type": "Point", "coordinates": [ 110.34481746500012, 20.021952850000048, 0.0 ] } },
{ "type": "Feature", "properties": { "GEODB_OID": 0.0, "OBJECTID": 4686.0, "NAME": "香港特别行政区", "PINYIN": "Xianggang Tebie Xingzhengqu", "CLASS": "AB", "GNID": "810000", "XZNAME": "香港", "XZJB": null, "备注_地驻": null, "POINT_X": 114.15895922, "POINT_Y": 22.27827848, "POINT_Z": 0.0, "POINT_M": 1.0, "cp": [114.15895922,22.27827848] }, "geometry": { "type": "Point", "coordinates": [ 114.15895922000004, 22.27827848000004, 0.0 ] } },
{ "type": "Feature", "properties": { "GEODB_OID": 0.0, "OBJECTID": 7373.0, "NAME": "贵州省", "PINYIN": "Guizhou Sheng", "CLASS": "AB", "GNID": "520000", "XZNAME": "贵阳市", "XZJB": null, "备注_地驻": null, "POINT_X": 106.70272830499999, "POINT_Y": 26.60480593, "POINT_Z": 0.0, "POINT_M": 1.0, "cp": [106.702728305,26.60480593] }, "geometry": { "type": "Point", "coordinates": [ 106.70272830500005, 26.604805930000111, 0.0 ] } },
{ "type": "Feature", "properties": { "GEODB_OID": 0.0, "OBJECTID": 8793.0, "NAME": "云南省", "PINYIN": "Yunnan Sheng", "CLASS": "AB", "GNID": "530000", "XZNAME": "昆明市", "XZJB": null, "备注_地驻": null, "POINT_X": 102.710359895, "POINT_Y": 25.048885425, "POINT_Z": 0.0, "POINT_M": 1.0, "cp": [102.710359895,25.048885425] }, "geometry": { "type": "Point", "coordinates": [ 102.71035989500012, 25.048885425000094, 0.0 ] } },
{ "type": "Feature", "properties": { "GEODB_OID": 0.0, "OBJECTID": 12225.0, "NAME": "福建省", "PINYIN": "Fujian Sheng", "CLASS": "AB", "GNID": "350000", "XZNAME": "福州市", "XZJB": null, "备注_地驻": null, "POINT_X": 119.291954565, "POINT_Y": 26.103813675, "POINT_Z": 0.0, "POINT_M": 1.0, "cp": [119.291954565,26.103813675] }, "geometry": { "type": "Point", "coordinates": [ 119.29195456500008, 26.103813675000083, 0.0 ] } },
{ "type": "Feature", "properties": { "GEODB_OID": 0.0, "OBJECTID": 14532.0, "NAME": "台湾省", "PINYIN": "Taiwan Sheng", "CLASS": "AB", "GNID": "710000", "XZNAME": "台北市", "XZJB": null, "备注_地驻": null, "POINT_X": 121.56576511, "POINT_Y": 25.03722046, "POINT_Z": 0.0, "POINT_M": 1.0, "cp": [121.56576511,25.03722046] }, "geometry": { "type": "Point", "coordinates": [ 121.56576511000014, 25.037220460000071, 0.0 ] } },
{ "type": "Feature", "properties": { "GEODB_OID": 0.0, "OBJECTID": 16289.0, "NAME": "西藏自治区", "PINYIN": "Xizang Zizhiqu", "CLASS": "AB", "GNID": "540000", "XZNAME": "拉萨市", "XZJB": null, "备注_地驻": null, "POINT_X": 91.119888935, "POINT_Y": 29.64863497, "POINT_Z": 0.0, "POINT_M": 1.0, "cp": [91.119888935,29.64863497] }, "geometry": { "type": "Point", "coordinates": [ 91.119888935000063, 29.648634970000103, 0.0 ] } },
{ "type": "Feature", "properties": { "GEODB_OID": 0.0, "OBJECTID": 20616.0, "NAME": "四川省", "PINYIN": "Sichuan Sheng", "CLASS": "AB", "GNID": "510000", "XZNAME": "成都市", "XZJB": null, "备注_地驻": null, "POINT_X": 104.07507195, "POINT_Y": 30.65284539, "POINT_Z": 0.0, "POINT_M": 1.0, "cp": [104.07507195,30.65284539] }, "geometry": { "type": "Point", "coordinates": [ 104.07507195000005, 30.652845390000039, 0.0 ] } },
{ "type": "Feature", "properties": { "GEODB_OID": 0.0, "OBJECTID": 21413.0, "NAME": "重庆市", "PINYIN": "Chongqing Shi", "CLASS": "AB", "GNID": "500000", "XZNAME": "重庆市", "XZJB": null, "备注_地驻": null, "POINT_X": 106.54762008500001, "POINT_Y": 29.564664705, "POINT_Z": 0.0, "POINT_M": 1.0, "cp": [106.547620085,29.564664705] }, "geometry": { "type": "Point", "coordinates": [ 106.54762008500006, 29.564664705000041, 0.0 ] } },
{ "type": "Feature", "properties": { "GEODB_OID": 0.0, "OBJECTID": 22061.0, "NAME": "湖南省", "PINYIN": "Hunan Sheng", "CLASS": "AB", "GNID": "430000", "XZNAME": "长沙市", "XZJB": null, "备注_地驻": null, "POINT_X": 112.979484335, "POINT_Y": 28.117796295, "POINT_Z": 0.0, "POINT_M": 1.0, "cp": [112.979484335,28.117796295] }, "geometry": { "type": "Point", "coordinates": [ 112.97948433500005, 28.117796295000062, 0.0 ] } },
{ "type": "Feature", "properties": { "GEODB_OID": 0.0, "OBJECTID": 25747.0, "NAME": "安徽省", "PINYIN": "Anhui Sheng", "CLASS": "AB", "GNID": "340000", "XZNAME": "合肥市", "XZJB": null, "备注_地驻": null, "POINT_X": 117.280529415, "POINT_Y": 31.864468845, "POINT_Z": 0.0, "POINT_M": 1.0, "cp": [117.280529415,31.864468845] }, "geometry": { "type": "Point", "coordinates": [ 117.28052941500005, 31.864468845000033, 0.0 ] } },
{ "type": "Feature", "properties": { "GEODB_OID": 0.0, "OBJECTID": 25799.0, "NAME": "湖北省", "PINYIN": "Hubei Sheng", "CLASS": "AB", "GNID": "420000", "XZNAME": "武汉市", "XZJB": null, "备注_地驻": null, "POINT_X": 114.33773116499999, "POINT_Y": 30.549575835, "POINT_Z": 0.0, "POINT_M": 1.0, "cp": [114.337731165,30.549575835] }, "geometry": { "type": "Point", "coordinates": [ 114.33773116500004, 30.549575835000041, 0.0 ] } },
{ "type": "Feature", "properties": { "GEODB_OID": 0.0, "OBJECTID": 25820.0, "NAME": "江西省", "PINYIN": "Jiangxi Sheng", "CLASS": "AB", "GNID": "360000", "XZNAME": "南昌市", "XZJB": null, "备注_地驻": null, "POINT_X": 115.905965305, "POINT_Y": 28.67946657, "POINT_Z": 0.0, "POINT_M": 1.0, "cp": [115.905965305,28.67946657] }, "geometry": { "type": "Point", "coordinates": [ 115.90596530500011, 28.679466570000045, 0.0 ] } },
{ "type": "Feature", "properties": { "GEODB_OID": 0.0, "OBJECTID": 29423.0, "NAME": "上海市", "PINYIN": "Shanghai Shi", "CLASS": "AB", "GNID": "310000", "XZNAME": "上海市", "XZJB": null, "备注_地驻": null, "POINT_X": 121.469706645, "POINT_Y": 31.23347604, "POINT_Z": 0.0, "POINT_M": 1.0, "cp": [121.469706645,31.23347604] }, "geometry": { "type": "Point", "coordinates": [ 121.46970664500009, 31.233476040000028, 0.0 ] } },
{ "type": "Feature", "properties": { "GEODB_OID": 0.0, "OBJECTID": 29774.0, "NAME": "浙江省", "PINYIN": "Zhejiang Sheng", "CLASS": "AB", "GNID": "330000", "XZNAME": "杭州市", "XZJB": null, "备注_地驻": null, "POINT_X": 120.147568865, "POINT_Y": 30.270415135, "POINT_Z": 0.0, "POINT_M": 1.0, "cp": [120.147568865,30.270415135] }, "geometry": { "type": "Point", "coordinates": [ 120.14756886500004, 30.270415135000121, 0.0 ] } },
{ "type": "Feature", "properties": { "GEODB_OID": 0.0, "OBJECTID": 34107.0, "NAME": "河南省", "PINYIN": "Henan Sheng", "CLASS": "AB", "GNID": "410000", "XZNAME": "郑州市", "XZJB": null, "备注_地驻": null, "POINT_X": 113.682587395, "POINT_Y": 34.771011605, "POINT_Z": 0.0, "POINT_M": 1.0, "cp": [113.682587395,34.771011605] }, "geometry": { "type": "Point", "coordinates": [ 113.68258739500004, 34.771011605000126, 0.0 ] } },
{ "type": "Feature", "properties": { "GEODB_OID": 0.0, "OBJECTID": 34905.0, "NAME": "陕西省", "PINYIN": "Shanxi Sheng", "CLASS": "AB", "GNID": "610000", "XZNAME": "西安市", "XZJB": null, "备注_地驻": null, "POINT_X": 108.951208665, "POINT_Y": 34.26687176, "POINT_Z": 0.0, "POINT_M": 1.0, "cp": [108.951208665,34.26687176] }, "geometry": { "type": "Point", "coordinates": [ 108.95120866500008, 34.266871760000072, 0.0 ] } },
{ "type": "Feature", "properties": { "GEODB_OID": 0.0, "OBJECTID": 36719.0, "NAME": "江苏省", "PINYIN": "Jiangsu Sheng", "CLASS": "AB", "GNID": "320000", "XZNAME": "南京市", "XZJB": null, "备注_地驻": null, "POINT_X": 118.758725305, "POINT_Y": 32.065213725, "POINT_Z": 0.0, "POINT_M": 1.0, "cp": [118.758725305,32.065213725] }, "geometry": { "type": "Point", "coordinates": [ 118.7587253050001, 32.065213725000035, 0.0 ] } },
{ "type": "Feature", "properties": { "GEODB_OID": 0.0, "OBJECTID": 40118.0, "NAME": "青海省", "PINYIN": "Qinghai Sheng", "CLASS": "AB", "GNID": "630000", "XZNAME": "西宁市", "XZJB": null, "备注_地驻": null, "POINT_X": 101.78027855000001, "POINT_Y": 36.62008997, "POINT_Z": 0.0, "POINT_M": 1.0, "cp": [101.78027855,36.62008997] }, "geometry": { "type": "Point", "coordinates": [ 101.78027855000005, 36.620089970000095, 0.0 ] } },
{ "type": "Feature", "properties": { "GEODB_OID": 0.0, "OBJECTID": 40521.0, "NAME": "甘肃省", "PINYIN": "Gansu Sheng", "CLASS": "AB", "GNID": "620000", "XZNAME": "兰州市", "XZJB": null, "备注_地驻": null, "POINT_X": 103.82596118, "POINT_Y": 36.05963873, "POINT_Z": 0.0, "POINT_M": 1.0, "cp": [103.82596118,36.05963873] }, "geometry": { "type": "Point", "coordinates": [ 103.82596118000004, 36.059638730000074, 0.0 ] } },
{ "type": "Feature", "properties": { "GEODB_OID": 0.0, "OBJECTID": 41211.0, "NAME": "宁夏回族自治区", "PINYIN": "Ningxia Huizu Zizhiqu", "CLASS": "AB", "GNID": "640000", "XZNAME": "银川市", "XZJB": null, "备注_地驻": null, "POINT_X": 106.255263345, "POINT_Y": 38.47036456, "POINT_Z": 0.0, "POINT_M": 1.0, "cp": [106.255263345,38.47036456] }, "geometry": { "type": "Point", "coordinates": [ 106.25526334500012, 38.470364560000121, 0.0 ] } },
{ "type": "Feature", "properties": { "GEODB_OID": 0.0, "OBJECTID": 42327.0, "NAME": "山西省", "PINYIN": "Shanxi Sheng", "CLASS": "AB", "GNID": "140000", "XZNAME": "太原市", "XZJB": null, "备注_地驻": null, "POINT_X": 112.55692809, "POINT_Y": 37.87532581, "POINT_Z": 0.0, "POINT_M": 1.0, "cp": [112.55692809,37.87532581] }, "geometry": { "type": "Point", "coordinates": [ 112.55692809000004, 37.875325810000049, 0.0 ] } },
{ "type": "Feature", "properties": { "GEODB_OID": 0.0, "OBJECTID": 43501.0, "NAME": "北京市", "PINYIN": "Beijing Shi", "CLASS": "AB", "GNID": "110000", "XZNAME": "北京市", "XZJB": null, "备注_地驻": null, "POINT_X": 116.40191241, "POINT_Y": 39.905033415, "POINT_Z": 0.0, "POINT_M": 1.0, "cp": [116.40191241,39.905033415] }, "geometry": { "type": "Point", "coordinates": [ 116.40191241000014, 39.905033415000048, 0.0 ] } },
{ "type": "Feature", "properties": { "GEODB_OID": 0.0, "OBJECTID": 44100.0, "NAME": "河北省", "PINYIN": "Hebei Sheng", "CLASS": "AB", "GNID": "130000", "XZNAME": "石家庄市", "XZJB": null, "备注_地驻": null, "POINT_X": 114.462751395, "POINT_Y": 38.036851275, "POINT_Z": 0.0, "POINT_M": 1.0, "cp": [114.462751395,38.036851275] }, "geometry": { "type": "Point", "coordinates": [ 114.46275139500005, 38.036851275000117, 0.0 ] } },
{ "type": "Feature", "properties": { "GEODB_OID": 0.0, "OBJECTID": 44856.0, "NAME": "山东省", "PINYIN": "Shandong Sheng", "CLASS": "AB", "GNID": "370000", "XZNAME": "济南市", "XZJB": null, "备注_地驻": null, "POINT_X": 116.98867304, "POINT_Y": 36.664793275, "POINT_Z": 0.0, "POINT_M": 1.0, "cp": [116.98867304,36.664793275] }, "geometry": { "type": "Point", "coordinates": [ 116.98867304000009, 36.664793275000079, 0.0 ] } },
{ "type": "Feature", "properties": { "GEODB_OID": 0.0, "OBJECTID": 45069.0, "NAME": "天津市", "PINYIN": "Tianjin Shi", "CLASS": "AB", "GNID": "120000", "XZNAME": "天津市", "XZJB": null, "备注_地驻": null, "POINT_X": 117.19563911500001, "POINT_Y": 39.08541885, "POINT_Z": 0.0, "POINT_M": 1.0, "cp": [117.195639115,39.08541885] }, "geometry": { "type": "Point", "coordinates": [ 117.19563911500006, 39.08541885000011, 0.0 ] } },
{ "type": "Feature", "properties": { "GEODB_OID": 0.0, "OBJECTID": 47708.0, "NAME": "新疆维吾尔自治区", "PINYIN": "Xinjiangweiwu'er Zizhiqu", "CLASS": "AB", "GNID": "650000", "XZNAME": "乌鲁木齐市", "XZJB": null, "备注_地驻": null, "POINT_X": 87.62598825, "POINT_Y": 43.792520945, "POINT_Z": 0.0, "POINT_M": 1.0, "cp": [87.62598825,43.792520945] }, "geometry": { "type": "Point", "coordinates": [ 87.625988250000091, 43.792520945000092, 0.0 ] } },
{ "type": "Feature", "properties": { "GEODB_OID": 0.0, "OBJECTID": 49192.0, "NAME": "内蒙古自治区", "PINYIN": "Neimongol Zizhiqu", "CLASS": "AB", "GNID": "150000", "XZNAME": "呼和浩特市", "XZJB": null, "备注_地驻": null, "POINT_X": 111.758851745, "POINT_Y": 40.818297275, "POINT_Z": 0.0, "POINT_M": 1.0, "cp": [111.758851745,40.818297275] }, "geometry": { "type": "Point", "coordinates": [ 111.75885174500013, 40.818297275000077, 0.0 ] } },
{ "type": "Feature", "properties": { "GEODB_OID": 0.0, "OBJECTID": 51897.0, "NAME": "吉林省", "PINYIN": "Jilin Sheng", "CLASS": "AB", "GNID": "220000", "XZNAME": "长春市", "XZJB": null, "备注_地驻": null, "POINT_X": 125.32073882500001, "POINT_Y": 43.89596336, "POINT_Z": 0.0, "POINT_M": 1.0, "cp": [125.320738825,43.89596336] }, "geometry": { "type": "Point", "coordinates": [ 125.32073882500015, 43.89596336000011, 0.0 ] } },
{ "type": "Feature", "properties": { "GEODB_OID": 0.0, "OBJECTID": 52022.0, "NAME": "辽宁省", "PINYIN": "Liaoning Sheng", "CLASS": "AB", "GNID": "210000", "XZNAME": "沈阳市", "XZJB": null, "备注_地驻": null, "POINT_X": 123.424799325, "POINT_Y": 41.83557137, "POINT_Z": 0.0, "POINT_M": 1.0, "cp": [123.424799325,41.83557137] }, "geometry": { "type": "Point", "coordinates": [ 123.42479932500009, 41.835571370000025, 0.0 ] } },
{ "type": "Feature", "properties": { "GEODB_OID": 0.0, "OBJECTID": 56562.0, "NAME": "黑龙江省", "PINYIN": "Heilongjiang Sheng", "CLASS": "AB", "GNID": "230000", "XZNAME": "哈尔滨市", "XZJB": null, "备注_地驻": null, "POINT_X": 126.657698135, "POINT_Y": 45.741929495, "POINT_Z": 0.0, "POINT_M": 1.0, "cp": [126.657698135,45.741929495] }, "geometry": { "type": "Point", "coordinates": [ 126.65769813500015, 45.741929495000136, 0.0 ] } }
]
}
